[
   {
      "code": "WT2",
      "name": "World Trade Center 2",
      "address": "Level 9,Tower 2,World Trade Center, Kharadi, Pune 400014, India",
      "city": "Pune",
      "region": "India",
      "phone": "+91 20 6819 7100",
      "fax": "+91 20 46923777",
      "currencyCode": "INR",
      "isActive": true,
      "isComingSoon": false,
      "latitude": 18.553067,
      "longitude": 73.948928
   },
   {
      "code": "BKC",
      "name": "The Capital",
      "address": "Level 7,The Capital, Plot No. C-70, G Block, Bandra Kurla Complex, Bandra (East), Mumbai 400051, India",
      "city": "Mumbai",
      "region": "India",
      "phone": "+91 22 6712 8888",
      "fax": null,
      "currencyCode": "INR",
      "isActive": true,
      "isComingSoon": false,
      "latitude": 19.063294,
      "longitude": 72.861789
   },
   {
      "code": "KPS",
      "name": "Kalpataru Synergy",
      "address": "Level 2, Kalpataru Synergy, Opposite Grand Hyatt, Santacruz (East), Mumbai 400055, India",
      "city": "Mumbai",
      "region": "India",
      "phone": "+91 22 6169 5800",
      "fax": null,
      "currencyCode": "INR",
      "isActive": false,
      "isComingSoon": false,
      "latitude": 19.076111,
      "longitude": 72.851061
   },
   {
      "code": "BK2",
      "name": "Capital Building 2",
      "address": "Level 3, Plot No. C-70, G Block, Bandra Kurla Complex, Bandra (East), Mumbai 400051, India",
      "city": "Mumbai",
      "region": "India",
      "phone": "+91 22 49054200",
      "fax": "+91 22 49055999",
      "currencyCode": "INR",
      "isActive": true,
      "isComingSoon": false,
      "latitude": 19.063294,
      "longitude": 72.861789
   },
   {
      "code": "MMM",
      "name": "Maker Maxity",
      "address": "Level 6 & 7, Maker Maxity, 4th North Avenue, Bandra Kurla Complex, Bandra East, Mumbai - 400051",
      "city": "Mumbai",
      "region": "India",
      "phone": "+91 22 6313 3535",
      "fax": "+91 22 6813 3559",
      "currencyCode": "INR",
      "isActive": true,
      "isComingSoon": false,
      "latitude": 19.054291,
      "longitude": 72.850847
   },
   {
      "code": "OTC",
      "name": "Olympia Teknos",
      "address": "Level 8 & 9, Olympia Teknos,  No.28, SIDCO Industrial Estate, Guindy, 600032, Chennai, India",
      "city": "Chennai",
      "region": "India",
      "phone": "+91 44 4065 2525",
      "fax": "",
      "currencyCode": "INR",
      "isActive": true,
      "isComingSoon": false,
      "latitude": 13.110437,
      "longitude": 80.159938
   },
   {
      "code": "FIF",
      "name": "First International Finance Center",
      "address": "Level 1, First International Financial Centre, Plot No.C-54 & 55, G-Block, Bandra Kurla Complex, Bandra (East), Mumbai-400 098",
      "city": "Mumbai",
      "region": "India",
      "phone": "+91",
      "fax": "",
      "currencyCode": "INR",
      "isActive": true,
      "isComingSoon": false,
      "latitude": 19.069346,
      "longitude": 72.869841
   },
   {
      "code": "PER",
      "name": "108 St Georges Terrace",
      "address": "Level 24 and 25, 108 St. Georges Terrace, Perth WA",
      "city": "Perth",
      "region": "Australia",
      "phone": "+61 8 6557 8888",
      "fax": null,
      "currencyCode": "AUD",
      "isActive": true,
      "isComingSoon": false,
      "latitude": -31.954474,
      "longitude": 115.856901
   },
   {
      "code": "NNC",
      "name": "Neihu New Century",
      "address": "Level 4, Neihu New Century Building, 55 Zhouzi Street, Neihu District, Taipei 114, Taiwan",
      "city": "Taipei",
      "region": "Taiwan",
      "phone": "+886 2 8729 9665",
      "fax": "+886 2 8758 2889",
      "currencyCode": "TWD",
      "isActive": true,
      "isComingSoon": false,
      "latitude": 25.079405,
      "longitude": 121.572716
   },
   {
      "code": "GFC",
      "name": "Gangnam Finance Centre",
      "address": "Level 41, Gangnam Finance Center, 152 Teheran-ro, Gangnam-gu, Seoul 06236, South Korea",
      "city": "Seoul",
      "region": "Korea",
      "phone": "+82 2 2008 4500",
      "fax": "+82 2 2008 4555",
      "currencyCode": "KRW",
      "isActive": true,
      "isComingSoon": false,
      "latitude": 37.500031,
      "longitude": 127.036556
   },
   {
      "code": "SF3",
      "name": "Three International Finance Centre",
      "address": "Level 43, International Finance Centre Seoul, Three IFC, 10 Gukjegeumyung-ro, Youngdeungpo-gu, Seoul 07326, South Korea",
      "city": "Seoul",
      "region": "Korea",
      "phone": "+82 2 6138 4500",
      "fax": "+82 2 6138 3555",
      "currencyCode": "KRW",
      "isActive": true,
      "isComingSoon": false,
      "latitude": 37.525764,
      "longitude": 126.925939
   },
   {
      "code": "GF2",
      "name": "Gangnam Finance Centre L4",
      "address": "Level 4, Gangnam Finance Center, 152 Teheran-ro, Gangnam-gu, Seoul 06236, South Korea",
      "city": "Seoul",
      "region": "Korea",
      "phone": "+82 2 2006 6700",
      "fax": null,
      "currencyCode": "KRW",
      "isActive": true,
      "isComingSoon": false,
      "latitude": 37.500031,
      "longitude": 127.036556
   },
   {
      "code": "FTS",
      "name": "Frasers Tower",
      "address": "Level 17, Frasers Tower, 182 Cecil Street, Singapore",
      "city": "Singapore",
      "region": "Singapore",
      "phone": "+65 6956 9000",
      "fax": "+65 6956 9001",
      "currencyCode": "SGD",
      "isActive": true,
      "isComingSoon": false,
      "latitude": 1.278865,
      "longitude": 103.847014
   },
   {
      "code": "SM2",
      "name": "Shin Marunouchi Centre L20",
      "address": "Level 20,Shin-Marunouchi Building,1-6-2 Marunouchi, Chiyoda-ku,Tokyo 100-0005",
      "city": "Tokyo",
      "region": "Japan",
      "phone": "+81 03 3216 7200",
      "fax": "+81 03 3216 7210",
      "currencyCode": "JPY",
      "isActive": true,
      "isComingSoon": false,
      "latitude": 35.684179,
      "longitude": 139.766425
   },
   {
      "code": "EDO",
      "name": "Kyobashi Edo Grand",
      "address": "Level 26, Kyobashi Edo Grand, 2-2-1 Kyobashi, Chuo-ku, Tokyo",
      "city": "Tokyo",
      "region": "Japan",
      "phone": "+81 3 6745 7000",
      "fax": "+81 3 6745 7010",
      "currencyCode": "JPY",
      "isActive": true,
      "isComingSoon": false,
      "latitude": 35.677393,
      "longitude": 139.76962
   },
   {
      "code": "NEX",
      "name": "Nexxus Building",
      "address": "Level 15 and 16 Nexxus Building 41 Connaught Road Central Hong Kong",
      "city": "Hong Kong",
      "region": "Hong Kong",
      "phone": "+852 3757 9999",
      "fax": "+852 3757 9401",
      "currencyCode": "HKD",
      "isActive": true,
      "isComingSoon": false,
      "latitude": 22.284273,
      "longitude": 114.156603
   },
   {
      "code": "PBB",
      "name": "Business Bay",
      "address": "Level 6, Wing 1, Tower A, Business Bay, Survey No 103, Hissa No 2, Airport Road, Yerwada, Pune 411 006, India",
      "city": "Pune",
      "region": "India",
      "phone": "+91 20 6707 2222",
      "fax": "+91 20 6707 2223",
      "currencyCode": "INR",
      "isActive": true,
      "isComingSoon": false,
      "latitude": 18.551583,
      "longitude": 73.890389
   },
   {
      "code": "TAI",
      "name": "Taipei 101",
      "address": "Level 37 & 57, TAIPEI 101 Tower, No. 7, Section 5, Xinyi Road, Taipei",
      "city": "Taipei",
      "region": "Taiwan",
      "phone": "+886 2 8758 2888",
      "fax": "+886 2 8758 2889",
      "currencyCode": "TWD",
      "isActive": true,
      "isComingSoon": false,
      "latitude": 25.033436,
      "longitude": 121.564758
   },
   {
      "code": "5CA",
      "name": "5 Corporate Avenue",
      "address": "Level 23, 5 Corporate Avenue, 150 Hubin Road, Huangpu District, Shanghai",
      "city": "Shanghai",
      "region": "China",
      "phone": "+86 21 8013 5388",
      "fax": null,
      "currencyCode": "CNY",
      "isActive": true,
      "isComingSoon": false,
      "latitude": 31.221103,
      "longitude": 121.478992
   },
   {
      "code": "CIT",
      "name": "Citic Square",
      "address": "Level 42, Citic Square, 1168 West Nanjing Road, Jing'an District, Shanghai",
      "city": "Shanghai",
      "region": "China",
      "phone": "+86 21 5252 4618",
      "fax": null,
      "currencyCode": "CNY",
      "isActive": true,
      "isComingSoon": false,
      "latitude": 31.228255,
      "longitude": 121.455677
   },
   {
      "code": "CHF",
      "name": "Chong Hing Finance Center",
      "address": "Level 12, Chong Hing Finance Center, 288 West Nanjing Road, Huangpu District, Shanghai",
      "city": "Shanghai",
      "region": "China",
      "phone": "+86 21 6133 7888",
      "fax": null,
      "currencyCode": "CNY",
      "isActive": true,
      "isComingSoon": false,
      "latitude": 31.232396,
      "longitude": 121.470238
   },
   {
      "code": "CEN",
      "name": "The Center",
      "address": "Level 20, The Center, 989 ChangLe Road, Puxi, Shanghai, China",
      "city": "Shanghai",
      "region": "China",
      "phone": "+86 21 5116 6888",
      "fax": null,
      "currencyCode": "CNY",
      "isActive": true,
      "isComingSoon": false,
      "latitude": 31.215359,
      "longitude": 121.447059
   },
   {
      "code": "KHZ",
      "name": "Kerry Centre Hangzhou",
      "address": "Level 8, Office Tower, Hangzhou Kerry Centre, No.385, Yan An Rd, Hangzhouï¼PR China 310006",
      "city": "Hangzhou",
      "region": "China",
      "phone": "+86 571 2809 6988",
      "fax": "+86 571 2809 6989",
      "currencyCode": "CNY",
      "isActive": true,
      "isComingSoon": false,
      "latitude": 30.262351,
      "longitude": 120.16232
   },
   {
      "code": "HMT",
      "name": "Hyundai Motor Tower",
      "address": "Level 17, Hyundai Motor Tower, 38 Xiaoyun Road, Chaoyang District, Beijing",
      "city": "Beijing",
      "region": "China",
      "phone": "+86 10 6410 8588",
      "fax": null,
      "currencyCode": "CNY",
      "isActive": true,
      "isComingSoon": false,
      "latitude": 39.95603,
      "longitude": 116.462586
   },
   {
      "code": "TOP",
      "name": "The One Place",
      "address": "Level 10, Shu Wang zi Hui Tower, No. 987 Mo Gan Shan Road, Gong Shu District, Hangzhou 310011, China",
      "city": "Hangzhou",
      "region": "China",
      "phone": "+86 571 2809 6988",
      "fax": "+86 571 2808 0033",
      "currencyCode": "CNY",
      "isActive": true,
      "isComingSoon": false,
      "latitude": 30.309228,
      "longitude": 120.119664
   },
   {
      "code": "CCP",
      "name": "China Central Place",
      "address": "Level 9, Tower 2, China Central Place, No.79 Jianguo Road, Chaoyang District, Beijing 100025",
      "city": "Beijing",
      "region": "China",
      "phone": "+86 10 8509 8588",
      "fax": "+86 10 8509 8599",
      "currencyCode": "CNY",
      "isActive": true,
      "isComingSoon": false,
      "latitude": 39.909334,
      "longitude": 116.481477
   },
   {
      "code": "YT2",
      "name": "Beijing Yintai Centre L31",
      "address": "Level 31, Beijing Yintai Office Tower, 2 Jianguomenwai Avenue, Chaoyang District, Beijing",
      "city": "Beijing",
      "region": "China",
      "phone": "+86 10 6563 7888",
      "fax": "+86 10 6587 6199",
      "currencyCode": "CNY",
      "isActive": true,
      "isComingSoon": false,
      "latitude": 39.907699,
      "longitude": 116.458997
   },
   {
      "code": "FSP",
      "name": "Financial Street Centre",
      "address": "Level 10, South Tower, Financial Street Center, No. 9A Financial Street, Xicheng District, Beijing 100033",
      "city": "Beijing",
      "region": "China",
      "phone": "+86 10 5737 9888",
      "fax": null,
      "currencyCode": "CNY",
      "isActive": true,
      "isComingSoon": false,
      "latitude": 39.919312,
      "longitude": 116.359136
   },
   {
      "code": "CIF",
      "name": "Chengdu IFS",
      "address": "Level 45, Office Tower I, IFS, No.1 Section 3 Hongxing Road, Jinjiang District, Chengdu, China",
      "city": "Chengdu",
      "region": "China",
      "phone": "+86 28 6753 3688",
      "fax": "+86 28 6753 3599",
      "currencyCode": "CNY",
      "isActive": true,
      "isComingSoon": false,
      "latitude": 30.65603,
      "longitude": 104.08218
   },
   {
      "code": "CRS",
      "name": "China Resources Tower Shenzhen",
      "address": "Level 6, China Resources Tower, No. 2666 South Keyuan Road, Nanshan District, Shenzhen",
      "city": "Shenzhen",
      "region": "China",
      "phone": "+86 755 3323 7900",
      "fax": null,
      "currencyCode": "CNY",
      "isActive": true,
      "isComingSoon": false,
      "latitude": 22.51478,
      "longitude": 113.94656
   },
   {
      "code": "CYT",
      "name": "Chengdu Yintai",
      "address": "Level 33, Tower 2 Yintai Centre, No.1199 Tianfu Avenue North, High-tech Zone Chengdu",
      "city": "Chengdu",
      "region": "China",
      "phone": "+86 28 6225 7888",
      "fax": "+86 28 6225 7999",
      "currencyCode": "CNY",
      "isActive": true,
      "isComingSoon": false,
      "latitude": 30.584748,
      "longitude": 104.069604
   },
   {
      "code": "MFR",
      "name": "Mfar Greenheart Manyata Tech Park",
      "address": "Level 7, Mfar Greenheart, Manyata Tech Park, Hebbal Outer Ring Road, Bangalore",
      "city": "Bangalore",
      "region": "India",
      "phone": "+91 80 6781 9999",
      "fax": "+91 80 6781 9998",
      "currencyCode": "INR",
      "isActive": true,
      "isComingSoon": false,
      "latitude": 13.045395,
      "longitude": 77.620962
   },
   {
      "code": "WTC",
      "name": "World Trade Center",
      "address": "Level 9,Tower 2, Kharadi, Pune 400014, India",
      "city": "Pune",
      "region": "India",
      "phone": "+91 20 67673666",
      "fax": "+91 20 67673777",
      "currencyCode": "INR",
      "isActive": true,
      "isComingSoon": false,
      "latitude": 18.553067,
      "longitude": 73.948928
   },
   {
      "code": "QTB",
      "name": "Qutab Crescent Centre",
      "address": "Level 1 & 2, Crescent Building ,Lado Sarai, Mehrauli, New Delhi 110030, India",
      "city": "New Delhi",
      "region": "India",
      "phone": "+91 11 6696 1000",
      "fax": "+91 11 6696 1001",
      "currencyCode": "INR",
      "isActive": true,
      "isComingSoon": false,
      "latitude": 28.524959,
      "longitude": 77.190523
   },
   {
      "code": "KHO",
      "name": "Prestige Khoday Tower",
      "address": "Level 10 &11, Prestige Khoday Tower, No. 5 Raj Bhavan Road, Bangalore 560001, India",
      "city": "Bangalore",
      "region": "India",
      "phone": "+ 91 80 6720 5555",
      "fax": "+91 80 6720 5556",
      "currencyCode": "INR",
      "isActive": true,
      "isComingSoon": false,
      "latitude": 12.98271,
      "longitude": 77.594019
   },
   {
      "code": "PTT",
      "name": "Prestige Trade Tower",
      "address": "Level 11, Prestige Trade Tower, 46 Palace Road, Bangalore 560001",
      "city": "Bangalore",
      "region": "India",
      "phone": "+91 80 61207000",
      "fax": "+91 80 61207001",
      "currencyCode": "INR",
      "isActive": true,
      "isComingSoon": false,
      "latitude": 12.984393,
      "longitude": 77.588219
   },
   {
      "code": "KWA",
      "name": "K Wah Centre",
      "address": "Level 27, K. Wah Centre, 1010 Middle Huaihai Road, Xuhui District, Shanghai 200021, Peopleâs Republic of China",
      "city": "Shanghai",
      "region": "China",
      "phone": "+86 21 8017 7888",
      "fax": "+86 21 8017 7899",
      "currencyCode": "CNY",
      "isActive": true,
      "isComingSoon": false,
      "latitude": 31.216205,
      "longitude": 121.455928
   },
   {
      "code": "CRT",
      "name": "Cerulean Tower",
      "address": "Level 15, Cerulean Tower, 26-1, Sakuragaoka-cho, Shibuya-ku, Tokyo 150-8512, Japan",
      "city": "Tokyo",
      "region": "Japan",
      "phone": "+81 3 5456 5510",
      "fax": "+81 3 5456 5511",
      "currencyCode": "JPY",
      "isActive": true,
      "isComingSoon": false,
      "latitude": 35.656481,
      "longitude": 139.699567
   },
   {
      "code": "PCW",
      "name": "PCCW Tower",
      "address": "Level 36, 979 King's Road, Quarry Bay, Hong Kong",
      "city": "Hong Kong",
      "region": "Hong Kong",
      "phone": "+852 3978 1188",
      "fax": "+852 3978 1199",
      "currencyCode": "HKD",
      "isActive": true,
      "isComingSoon": true,
      "latitude": 22.287199,
      "longitude": 114.21203
   },
   {
      "code": "MG1",
      "name": "Maga One",
      "address": "Level 12 & 13, Maga One,  No. 200 Nawala Road, Narahenpita, Colombo 05, Sri Lanka",
      "city": "colombo",
      "region": "Sri Lanka",
      "phone": "+94 11 7450 745",
      "fax": null,
      "currencyCode": "LKR",
      "isActive": false,
      "isComingSoon": true,
      "latitude": 6.886054,
      "longitude": 79.887255
   },
   {
      "code": "coL",
      "name": "World Trade Center Colombo",
      "address": "Level 35 & 37, World Trade Center, West Tower, Colombo 01, Colombo, Sri Lanka",
      "city": "colombo",
      "region": "Sri Lanka",
      "phone": "+94 11 7450 745",
      "fax": "+94 11 7450 746",
      "currencyCode": "LKR",
      "isActive": true,
      "isComingSoon": false,
      "latitude": 6.932811,
      "longitude": 79.843639
   },
   {
      "code": "NAN",
      "name": "Taipei Nanshan Plaza",
      "address": "Level 34, Nanshan Financial Centre, No.100, Songren Rd., Xinyi Dist., Taipei 110, Taiwan",
      "city": "Taipei",
      "region": "Taiwan",
      "phone": "+886 2 8729 5888",
      "fax": "+886 2 8729 5889",
      "currencyCode": "TWD",
      "isActive": true,
      "isComingSoon": false,
      "latitude": 25.035463,
      "longitude": 121.568582
   },
   {
      "code": "EHQ",
      "name": "Enterprise Headquarter Building",
      "address": "Level 19, Enterprise Headquarter Building, 170 Weiyang Road, Weiyang District, Xian",
      "city": "Xian",
      "region": "China",
      "phone": "+86 40 06100 266",
      "fax": "+86 40 06100 266",
      "currencyCode": "CNY",
      "isActive": true,
      "isComingSoon": false,
      "latitude": 34.3379,
      "longitude": 108.94556
   },
   {
      "code": "CC2",
      "name": "China Central Place L6",
      "address": "Level 6, Tower 2, China Central Place, No.79 Jianguo Road, Chaoyang District, Beijing  100025",
      "city": "Beijing",
      "region": "China",
      "phone": "+86 10 6580 0588",
      "fax": "+86 10 6580 0599",
      "currencyCode": "CNY",
      "isActive": true,
      "isComingSoon": false,
      "latitude": 39.909334,
      "longitude": 116.481477
   },
   {
      "code": "XTD",
      "name": "Xintiandi",
      "address": "Level 5, Xintiandi, 159 Madang Road, Huangpu District, Shanghai",
      "city": "Shanghai",
      "region": "China",
      "phone": "+86 21 6135 7188",
      "fax": null,
      "currencyCode": "CNY",
      "isActive": false,
      "isComingSoon": false,
      "latitude": 31.216367,
      "longitude": 121.475182
   },
   {
      "code": "SC1",
      "name": "Saigon Centre",
      "address": "Level 14, Saigon Centre Tower 1, 65 Le Loi Street, Ben Nghe Ward, District 1, Ho Chi Minh City, Vietnam",
      "city": "Ho Chi Minh City",
      "region": "Vietnam",
      "phone": "+84 28 3971 9777",
      "fax": "+84 28 3971 9778",
      "currencyCode": "VND",
      "isActive": true,
      "isComingSoon": false,
      "latitude": 10.774068,
      "longitude": 106.70093
   },
   {
      "code": "RCB",
      "name": "RCBC Plaza",
      "address": "Level 26, Tower 2, RCBC Plaza, 6819 Ayala Avenue, Makati City, Phillipines",
      "city": "Manila",
      "region": "Philippines",
      "phone": "+63 917 702 7375",
      "fax": null,
      "currencyCode": "PHP",
      "isActive": true,
      "isComingSoon": false,
      "latitude": 14.561015,
      "longitude": 121.016893
   },
   {
      "code": "OF2",
      "name": "Ocean Financial Centre L37",
      "address": "Level 37, Ocean Financial Centre, 10 Collyer Quay, Raffles Place, Singapore",
      "city": "Singapore",
      "region": "Singapore",
      "phone": "+65 6808 6288",
      "fax": "+65 6808 6299",
      "currencyCode": "SGD",
      "isActive": true,
      "isComingSoon": false,
      "latitude": 1.2839,
      "longitude": 103.8515
   },
   {
      "code": "MBF",
      "name": "Marina Bay Financial Centre",
      "address": "Level 11, Marina Bay Financial Centre Tower 1, 8 Marina Blvd, Singapore 018981",
      "city": "Singapore",
      "region": "Singapore",
      "phone": "+65 6808 6288",
      "fax": "+65 6808 6299",
      "currencyCode": "SGD",
      "isActive": true,
      "isComingSoon": false,
      "latitude": 1.280144,
      "longitude": 103.853317
   },
   {
      "code": "IFC",
      "name": "International Finance Centre",
      "address": "Level 8 and 36, Shanghai International Finance Centre Tower II, 8 Century Avenue, Pudong Shanghai",
      "city": "Shanghai",
      "region": "China",
      "phone": "+86 21 6062 6258",
      "fax": null,
      "currencyCode": "CNY",
      "isActive": true,
      "isComingSoon": false,
      "latitude": 31.236847,
      "longitude": 121.502152
   },
   {
      "code": "HNA",
      "name": "HNA",
      "address": "Level 10, HNA Tower, 8 Linhe Zhong Road, Tianhe District, Guangzhou",
      "city": "Guangzhou",
      "region": "China",
      "phone": "+86 20 2831 7333",
      "fax": "+86 20 2831 7000",
      "currencyCode": "CNY",
      "isActive": false,
      "isComingSoon": false,
      "latitude": 23.143697,
      "longitude": 113.326252
   },
   {
      "code": "JNT",
      "name": "Jongno Tower",
      "address": "Level 17, Jongno Tower , 51 Jongno, Jongno-gu, Seoul",
      "city": "Seoul",
      "region": "Korea",
      "phone": "+82 2 2092 6500",
      "fax": null,
      "currencyCode": "KRW",
      "isActive": false,
      "isComingSoon": false,
      "latitude": 37.570587,
      "longitude": 126.983616
   },
   {
      "code": "BES",
      "name": "Eagle Street",
      "address": "Level 54, One One One Eagle Street, Brisbane, QLD",
      "city": "Brisbane",
      "region": "Australia",
      "phone": "+61 7 3012 6688",
      "fax": null,
      "currencyCode": "AUD",
      "isActive": true,
      "isComingSoon": false,
      "latitude": -27.467531,
      "longitude": 153.030361
   },
   {
      "code": "ASQ",
      "name": "Australia Square",
      "address": "Level 33, Australia Square, 264 George Street, Sydney, NSW2000",
      "city": "Sydney",
      "region": "Australia",
      "phone": "+61 2 9258 1000",
      "fax": null,
      "currencyCode": "AUD",
      "isActive": true,
      "isComingSoon": false,
      "latitude": -33.865158,
      "longitude": 151.207769
   },
   {
      "code": "2PP",
      "name": "Two Pacific Place",
      "address": "Level 35, Two Pacific Place, 88 Queensway, Admiralty, Hong Kong",
      "city": "Hong Kong",
      "region": "Hong Kong",
      "phone": "+852 2218 7500",
      "fax": "+852 2218 7501",
      "currencyCode": "HKD",
      "isActive": true,
      "isComingSoon": false,
      "latitude": 22.277045,
      "longitude": 114.165328
   },
   {
      "code": "GPT",
      "name": "Governor Phillip Tower",
      "address": "Level 36, Governor Phillip Tower, 1 Farrer Place, Sydney, NSW 2000, Australia",
      "city": "Sydney",
      "region": "Australia",
      "phone": "+61 2 8823 3688",
      "fax": null,
      "currencyCode": "AUD",
      "isActive": true,
      "isComingSoon": false,
      "latitude": -33.864266,
      "longitude": 151.210598
   },
   {
      "code": "RN2",
      "name": "Roppongi Hills North Tower L16",
      "address": "Level 16, Roppongi Hills North Tower, 6-2-31 Roppongi, Minato-ku, Tokyo, Japan 106-0032",
      "city": "Tokyo",
      "region": "Japan",
      "phone": "+81 3 5786 2333",
      "fax": "+81 3 5786 2330",
      "currencyCode": "JPY",
      "isActive": true,
      "isComingSoon": false,
      "latitude": 35.661863,
      "longitude": 139.730237
   },
   {
      "code": "1BL",
      "name": "One Bligh Street",
      "address": "Level 26, 1 Bligh Street, Sydney, NSW 2000",
      "city": "Sydney",
      "region": "Australia",
      "phone": "+61 2 8226 8888",
      "fax": "+61 2 8226 8899",
      "currencyCode": "AUD",
      "isActive": true,
      "isComingSoon": false,
      "latitude": -33.864721,
      "longitude": 151.211032
   },
   {
      "code": "IT3",
      "name": "Three International Towers",
      "address": "Level 24, Three International Towers, 300 Barangaroo Avenue, Sydney NSW 2000",
      "city": "Sydney",
      "region": "Australia",
      "phone": "+61 2 8067 8888",
      "fax": "+61 2 80678899",
      "currencyCode": "AUD",
      "isActive": true,
      "isComingSoon": false,
      "latitude": -33.864146,
      "longitude": 151.202218
   },
   {
      "code": "28H",
      "name": "28 Hennessy Road",
      "address": "Level 5 and 6 28 Hennessy Road Admiralty Hong Kong",
      "city": "Hong Kong",
      "region": "Hong Kong",
      "phone": "+852 3951 9888",
      "fax": "+852 3951 9898",
      "currencyCode": "HKD",
      "isActive": false,
      "isComingSoon": false,
      "latitude": 22.277494,
      "longitude": 114.16935
   },
   {
      "code": "1HC",
      "name": "One Horizon Center",
      "address": "Level 18, One Horizon Center, Golf Course Road, DLF Phaseâ5, Sector 43, Gurgaon 122002, India",
      "city": "Gurgaon",
      "region": "India",
      "phone": "+91 124 668 7777",
      "fax": null,
      "currencyCode": "INR",
      "isActive": true,
      "isComingSoon": false,
      "latitude": 28.451389,
      "longitude": 77.097222
   },
   {
      "code": "DB5",
      "name": "Gurgaon DLF Cyber City",
      "address": "Level 18, DLF Building No. 5, Tower A, Phase III, DLF Cyber City, Gurgaon 122002, India",
      "city": "Gurgaon",
      "region": "India",
      "phone": "+91 124 663 7777",
      "fax": null,
      "currencyCode": "INR",
      "isActive": true,
      "isComingSoon": false,
      "latitude": 28.490203,
      "longitude": 77.092814
   },
   {
      "code": "2HC",
      "name": "Two Horizon Center",
      "address": "Level 12, Two Horizon Center, Golf Course Road, DLF Phaseâ5, Sector 43, Gurgaon 122002, India",
      "city": "Gurgaon",
      "region": "India",
      "phone": "+91 124 668 8444",
      "fax": null,
      "currencyCode": "INR",
      "isActive": false,
      "isComingSoon": false,
      "latitude": 28.451389,
      "longitude": 77.097222
   },
   {
      "code": "PPJ",
      "name": "One Pacific Place",
      "address": "Level 11, One Pacific Place, Jl. Jend. Sudirman Kav. 52-53, âSudirman Central Business District (SCBD )â , Jakarta, Indonesia 12190",
      "city": "Jakarta",
      "region": "Indonesia",
      "phone": "+62 21 2985 9888",
      "fax": "+62 21 2985 9889",
      "currencyCode": "IDR",
      "isActive": true,
      "isComingSoon": false,
      "latitude": -6.216061,
      "longitude": 106.818383
   },
   {
      "code": "TTP",
      "name": "Tamarai Tech Park",
      "address": "Level 5, Tamarai Tech Park, S.P.Plot No.16-19 & 20-A, Thiru Vi Ka Industrial Estate, Inner Ring Road, Guindy, Chennai 600032, India",
      "city": "Chennai",
      "region": "India",
      "phone": "+91 44 4065 2525",
      "fax": null,
      "currencyCode": "INR",
      "isActive": true,
      "isComingSoon": false,
      "latitude": 13.012377,
      "longitude": 80.203037
   },
   {
      "code": "PPC",
      "name": "Prestige Palladium Chennai",
      "address": "Level 5, Prestige Palladium Bayan, 129 â 140 Greams Road, Chennai",
      "city": "Chennai",
      "region": "India",
      "phone": "+91 44 6693 6693",
      "fax": null,
      "currencyCode": "INR",
      "isActive": true,
      "isComingSoon": false,
      "latitude": 13.058388,
      "longitude": 80.253562
   },
   {
      "code": "NPS",
      "name": "Northpoint Tower",
      "address": "Level 40, Northpoint Tower, 100 Miller Street, North Sydney NSW2060",
      "city": "Sydney",
      "region": "Australia",
      "phone": "+61 2 9931 7800",
      "fax": "+61 2 9931 6888",
      "currencyCode": "AUD",
      "isActive": false,
      "isComingSoon": false,
      "latitude": -33.838139,
      "longitude": 151.207033
   },
   {
      "code": "ORQ",
      "name": "One Raffles Quay",
      "address": "Level 25, One Raffles Quay North Tower, Raffles Place, Singapore",
      "city": "Singapore",
      "region": "Singapore",
      "phone": "+65 6622 5888",
      "fax": "+65 6622 5999",
      "currencyCode": "SGD",
      "isActive": true,
      "isComingSoon": false,
      "latitude": 1.281767,
      "longitude": 103.852389
   },
   {
      "code": "6BR",
      "name": "Six Battery Road",
      "address": "Level 42, 6 Battery Road",
      "city": "Singapore",
      "region": "Singapore",
      "phone": "+65 6232 2777",
      "fax": "+65 6232 2888",
      "currencyCode": "SGD",
      "isActive": true,
      "isComingSoon": false,
      "latitude": 1.285668,
      "longitude": 103.851834
   },
   {
      "code": "GWW",
      "name": "The Gateway West",
      "address": "Level 35, The Gateway West, 150 Beach Road, Singapore 189720",
      "city": "Singapore",
      "region": "Singapore",
      "phone": "+65 6727 6888",
      "fax": "+65 6727 6889",
      "currencyCode": "SGD",
      "isActive": true,
      "isComingSoon": false,
      "latitude": 1.299349,
      "longitude": 103.859366
   },
   {
      "code": "PRU",
      "name": "Prudential Tower",
      "address": "30 Cecil Street, Prudential Tower Level 15",
      "city": "Singapore",
      "region": "Singapore",
      "phone": null,
      "fax": null,
      "currencyCode": "SGD",
      "isActive": false,
      "isComingSoon": false,
      "latitude": 1.28275048370506,
      "longitude": 103.849833011627
   },
   {
      "code": "EXC",
      "name": "Two Exchange Square",
      "address": "Level 5, 7 and 8 Two Exchange Square 8 Connaught Place Central, Hong Kong",
      "city": "Hong Kong",
      "region": "Hong Kong",
      "phone": "+852 2297 2297",
      "fax": "+852 2297 0066",
      "currencyCode": "HKD",
      "isActive": false,
      "isComingSoon": false,
      "latitude": 22.284143,
      "longitude": 114.158172
   },
   {
      "code": "SOP",
      "name": "Shui On Plaza",
      "address": "Level 22, Shui On Plaza, No.333, Middle Huaihai Road, Huangpu District, Shanghai, 200021",
      "city": "Shanghai",
      "region": "China",
      "phone": "+86 21 6135 7188",
      "fax": null,
      "currencyCode": "CNY",
      "isActive": true,
      "isComingSoon": false,
      "latitude": 31.222721,
      "longitude": 121.474194
   },
   {
      "code": "TKH",
      "name": "Taikoo Hui",
      "address": "Level 7-02, Taikoo Hui Tower 1, 385 Tianhe Road, Tianhe District, Guangzhou",
      "city": "Guangzhou",
      "region": "China",
      "phone": "+86 20 2886 1555",
      "fax": "+86 20 2886 1777",
      "currencyCode": "CNY",
      "isActive": true,
      "isComingSoon": false,
      "latitude": 23.133926,
      "longitude": 113.333221
   },
   {
      "code": "K08",
      "name": "K11 L8 Conference Centre",
      "address": "Level 8, Guangzhou CTF Finance Center, No.6 Zhujiang Dong Road, Tianhe District, Guangzhou, China",
      "city": "Guangzhou",
      "region": "China",
      "phone": "+86 20 2206 0666",
      "fax": "+86 20 2831 3131",
      "currencyCode": "CNY",
      "isActive": true,
      "isComingSoon": false,
      "latitude": 23.117724,
      "longitude": 113.326044
   },
   {
      "code": "K12",
      "name": "K11 L38",
      "address": "Level 38, Guangzhou CTF Finance Center, No.6 Zhujiang Dong Road, Tianhe District, Guangzhou, China",
      "city": "Guangzhou",
      "region": "China",
      "phone": "+86 20 2831 3111",
      "fax": "+86 20 2831 3131",
      "currencyCode": "CNY",
      "isActive": true,
      "isComingSoon": false,
      "latitude": 23.117724,
      "longitude": 113.326044
   },
   {
      "code": "K11",
      "name": "K11",
      "address": "Level 9, Guangzhou CTF Finance Center, No.6 Zhujiang Dong Road, Tianhe District, Guangzhou, China",
      "city": "Guangzhou",
      "region": "China",
      "phone": "+86 20 2206 0666",
      "fax": "+86 20 2831 3131",
      "currencyCode": "CNY",
      "isActive": true,
      "isComingSoon": false,
      "latitude": 23.117724,
      "longitude": 113.326044
   },
   {
      "code": "KT3",
      "name": "Kerry Plaza Tower 3",
      "address": "Level 13, Tower 3, Kerry Plaza, No. 1-1 Zhong Xin Si Road, Futian District, Shenzhen 518048",
      "city": "Shenzhen",
      "region": "China",
      "phone": "+86 755 3304 3304",
      "fax": null,
      "currencyCode": "CNY",
      "isActive": true,
      "isComingSoon": false,
      "latitude": 22.535347,
      "longitude": 114.056971
   },
   {
      "code": "KER",
      "name": "Kerry Plaza Tower 2",
      "address": "Level 15, Kerry Plaza Tower 2, No.1 Zhong Xin Si Road, Futian District, Shenzhen 518048",
      "city": "Shenzhen",
      "region": "China",
      "phone": "+86 755 3304 3333",
      "fax": null,
      "currencyCode": "CNY",
      "isActive": true,
      "isComingSoon": false,
      "latitude": 22.535287,
      "longitude": 114.058143
   },
   {
      "code": "GEM",
      "name": "GEM Tower",
      "address": "Level 13 & 14, GEM Tower, No. 3033 Zhongxin Road, Houhai Nanshan District, Shenzhen 518054",
      "city": "Shenzhen",
      "region": "China",
      "phone": "+86 755 3522 2900",
      "fax": "+86 755 3522 2901",
      "currencyCode": "CNY",
      "isActive": true,
      "isComingSoon": false,
      "latitude": 22.5081,
      "longitude": 113.9411
   },
   {
      "code": "TPP",
      "name": "Three Pacific Place",
      "address": "Level 3 Three Pacific Place 1 Queen's Road East Admiralty, Hong Kong",
      "city": "Hong Kong",
      "region": "Hong Kong",
      "phone": "+852 2855 6888",
      "fax": "+852 2855 6811",
      "currencyCode": "HKD",
      "isActive": false,
      "isComingSoon": false,
      "latitude": 22.276896,
      "longitude": 114.1681
   },
   {
      "code": "CSQ",
      "name": "collins Square",
      "address": "Level 23 Tower 5, 727 Collins Street Melbourne VIC 3008, Australia",
      "city": "Melbourne",
      "region": "Australia",
      "phone": "+61 3 9977 9699",
      "fax": "+61 3 9977 9698",
      "currencyCode": "AUD",
      "isActive": true,
      "isComingSoon": false,
      "latitude": -37.820357,
      "longitude": 144.950024
   },
   {
      "code": "CBH",
      "name": "Cambridge House",
      "address": "Level 8 Cambridge House Taikoo Place 979 King's Road Island East Hong Kong",
      "city": "Hong Kong",
      "region": "Hong Kong",
      "phone": "+852 2293 2600",
      "fax": "+852 2293 2622",
      "currencyCode": "HKD",
      "isActive": true,
      "isComingSoon": false,
      "latitude": 22.286811,
      "longitude": 114.210786
   },
   {
      "code": "OIE",
      "name": "One Island East",
      "address": "Level 23 and 60 One Island East 18 Westlands Road Island East, Hong Kong",
      "city": "Hong Kong",
      "region": "Hong Kong",
      "phone": "+852 3750 7888",
      "fax": "+852 3750 7400",
      "currencyCode": "HKD",
      "isActive": true,
      "isComingSoon": false,
      "latitude": 22.286083,
      "longitude": 114.213339
   },
   {
      "code": "PTC",
      "name": "Prosperity Tower",
      "address": "Level 22-26, Prosperity Tower, 39 Queen's Road Central, Central",
      "city": "Hong Kong",
      "region": "Hong Kong",
      "phone": "+852 2855 6888",
      "fax": null,
      "currencyCode": "HKD",
      "isActive": true,
      "isComingSoon": false,
      "latitude": 22.283131,
      "longitude": 114.156248
   },
   {
      "code": "HKC",
      "name": "The Hong Kong Club Building",
      "address": "Level 15 and 16 The Hong Kong Club Building 3A Chater Road Central, Hong Kong",
      "city": "Hong Kong",
      "region": "Hong Kong",
      "phone": "+852 3974 8888",
      "fax": "+852 3974 8899",
      "currencyCode": "HKD",
      "isActive": true,
      "isComingSoon": false,
      "latitude": 22.281406,
      "longitude": 114.161139
   },
   {
      "code": "PFC",
      "name": "Pingan Finance Centre",
      "address": "Level 25, Pingan Finance Centre, 99 Dongda Street, Jinjiang, Wuhou District, Chengdu 610041",
      "city": "Chengdu",
      "region": "China",
      "phone": "+86 28 6728 2188",
      "fax": "+86 28 6728 2199",
      "currencyCode": "CNY",
      "isActive": true,
      "isComingSoon": false,
      "latitude": 30.65173,
      "longitude": 104.0811
   },
   {
      "code": "SFC",
      "name": "Seoul Finance Centre",
      "address": "Level 21, Seoul Finance Center, 136 Sejong-daero, Jung-gu, Seoul 04520, South Korea",
      "city": "Seoul",
      "region": "Korea",
      "phone": "+82 2 3782 4500",
      "fax": "+82 2 3782 4555",
      "currencyCode": "KRW",
      "isActive": true,
      "isComingSoon": false,
      "latitude": 37.568286,
      "longitude": 126.978128
   },
   {
      "code": "RCC",
      "name": "Raffles City Chengdu Tower",
      "address": "Level 17, Raffles City Chengdu Tower 2, No.3, Section 4, South Renmin Road, Wuhou District, Chengdu",
      "city": "Chengdu",
      "region": "China",
      "phone": "+86 28 6511 8188",
      "fax": "+86 28 6511 8199",
      "currencyCode": "CNY",
      "isActive": true,
      "isComingSoon": false,
      "latitude": 30.631786,
      "longitude": 104.066958
   },
   {
      "code": "CW5",
      "name": "China World Tower B",
      "address": "Level 23, China World Tower B, 1 Jianguomenwai Avenue, Chaoyang District, Beijing",
      "city": "Beijing",
      "region": "China",
      "phone": "+86 10 8509 8588",
      "fax": "+86 10 8509 8599",
      "currencyCode": "CNY",
      "isActive": true,
      "isComingSoon": false,
      "latitude": 39.909548,
      "longitude": 116.458231
   },
   {
      "code": "CWO",
      "name": "China World Office 1",
      "address": "Level 14, China World Office 1, 1 Jianguomenwai Avenue, Chaoyang District, Beijing",
      "city": "Beijing",
      "region": "China",
      "phone": "+86 10 6535 0188",
      "fax": null,
      "currencyCode": "CNY",
      "isActive": true,
      "isComingSoon": false,
      "latitude": 39.909564,
      "longitude": 116.458399
   },
   {
      "code": "YTC",
      "name": "Beijing Yintai Centre",
      "address": "Level 15, Beijing Yintai Office Tower, 2 Jianguomenwai Avenue, Chaoyang District, Beijing",
      "city": "Beijing",
      "region": "China",
      "phone": "+86 10 6563 7888",
      "fax": null,
      "currencyCode": "CNY",
      "isActive": true,
      "isComingSoon": false,
      "latitude": 39.907699,
      "longitude": 116.458997
   },
   {
      "code": "CRB",
      "name": "China Resources Building",
      "address": "Level 12, China Resources Building, 8 Jianguomenbei Avenue, Dongcheng District, Beijing",
      "city": "Beijing",
      "region": "China",
      "phone": "+86 10 5811 1888",
      "fax": null,
      "currencyCode": "CNY",
      "isActive": true,
      "isComingSoon": false,
      "latitude": 39.912967,
      "longitude": 116.434022
   },
   {
      "code": "CW3",
      "name": "China World Office 2",
      "address": "Level 24, China World Office 2, No. 1 Jianguomenwai Avenue, Chaoyang District, Beijing 100004 P.R. China",
      "city": "Beijing",
      "region": "China",
      "phone": "+86 10 5929 8688",
      "fax": null,
      "currencyCode": "CNY",
      "isActive": true,
      "isComingSoon": false,
      "latitude": 39.91086,
      "longitude": 116.460462
   },
   {
      "code": "AUR",
      "name": "Aurora Place",
      "address": "Level 25, Aurora Place, 88 Phillip Street, Sydney, NSW2000",
      "city": "Sydney",
      "region": "Australia",
      "phone": "+61 2 8211 0688",
      "fax": null,
      "currencyCode": "AUD",
      "isActive": true,
      "isComingSoon": false,
      "latitude": -33.864856,
      "longitude": 151.211792
   },
   {
      "code": "1FC",
      "name": "Hong Kong One IFC",
      "address": "20/F, One International Finance Centre, 1 Harbour View Street, Central, Hong Kong",
      "city": "Hong Kong",
      "region": "Hong Kong",
      "phone": "+852 3899 6888",
      "fax": "",
      "currencyCode": "HKD",
      "isActive": true,
      "isComingSoon": false,
      "latitude": 22.285062,
      "longitude": 114.156835
   },
   {
      "code": "OFC",
      "name": "Ocean Financial Centre",
      "address": "Level 40, Ocean Financial Centre, 10 Collyer Quay, Raffles Place, Singapore 049315",
      "city": "Singapore",
      "region": "Singapore",
      "phone": "+65 6808 6288",
      "fax": "+65 6808 6299",
      "currencyCode": "SGD",
      "isActive": true,
      "isComingSoon": false,
      "latitude": 1.283206,
      "longitude": 103.85195
   },
   {
      "code": "CRC",
      "name": "Tribe",
      "address": "51B/52B Circular Road Singapore",
      "city": "Singapore",
      "region": "Singapore",
      "phone": "+65 6808 6767",
      "fax": null,
      "currencyCode": "SGD",
      "isActive": false,
      "isComingSoon": false,
      "latitude": 1.285752,
      "longitude": 103.849527
   },
   {
      "code": "SSS",
      "name": "Sampoerna Strategic Square",
      "address": "Level 18, Sampoerna Strategic Square, South Tower, Jl. Jend. Sudirman Kav. 45-46, Jakarta",
      "city": "Jakarta",
      "region": "Indonesia",
      "phone": "+62 21 575 0800",
      "fax": null,
      "currencyCode": "IDR",
      "isActive": true,
      "isComingSoon": false,
      "latitude": -6.217061,
      "longitude": 106.818383
   },
   {
      "code": "CCC",
      "name": "Two Chinachem Central",
      "address": "Level 5 to 19, Two Chinachem Central,  26 Des Voeux Road Central, Central Hong Kong",
      "city": "Hong Kong",
      "region": "Hong Kong",
      "phone": "+852 2293 2293",
      "fax": "+852 2293 2393",
      "currencyCode": "HKD",
      "isActive": true,
      "isComingSoon": false,
      "latitude": 22.283161,
      "longitude": 114.156852
   },
   {
      "code": "RTP",
      "name": "Ramaiah Tech Park",
      "address": "Level 10, Wing C, Helios Business Park, Sy No-24/1, 25/2 & 26/1, Kadubeesanahalli, Varthur Hobli, Bangalore-560103",
      "city": "Bangalore",
      "region": "India",
      "phone": "+91 80 6158 1000",
      "fax": "+ 91 80 6158 1001",
      "currencyCode": "INR",
      "isActive": true,
      "isComingSoon": false,
      "latitude": 13.035666,
      "longitude": 77.564322
   },
   {
      "code": "FTR",
      "name": "Friendship Tower",
      "address": "Level 6 & 7, Friendship Tower, No. 31 Le Duan Street, Ben Nghe Ward, District 1, Ho Chi Minh City 70000, Vietnam",
      "city": "Ho Chi Minh City",
      "region": "Vietnam",
      "phone": "+84 28 3868 9222",
      "fax": "+84 28 3868 9223",
      "currencyCode": "VND",
      "isActive": true,
      "isComingSoon": false,
      "latitude": 10.782458,
      "longitude": 106.700797
   },
   {
      "code": "KJA",
      "name": "Kerry Jingan",
      "address": "Level 7 & 8, Jing An Kerry Centre,Â 1515 Nanjing Road West, Jingan District, Shanghai",
      "city": "Shanghai",
      "region": "China",
      "phone": "+86 21 8033 3188",
      "fax": "+86 21 8033 3199",
      "currencyCode": "CNY",
      "isActive": true,
      "isComingSoon": false,
      "latitude": 31.22492,
      "longitude": 121.45014
   },
   {
      "code": "3GR",
      "name": "3 Garden Road",
      "address": "Level 43 & 44, Champion Tower, 3 Garden Road, Central, Hong Kong",
      "city": "Hong Kong",
      "region": "Hong Kong",
      "phone": "+852 2297 2297",
      "fax": "+852 2297 0066",
      "currencyCode": "HKD",
      "isActive": true,
      "isComingSoon": false,
      "latitude": 22.278438,
      "longitude": 114.160574
   },
   {
      "code": "KT1",
      "name": "Kerry Plaza Tower 1",
      "address": "Level 3, Tower 1, Kerry Plaza, No. 1-1 Zhong Xin Si Road, Futian District, Shenzhen 518048",
      "city": "Shenzhen",
      "region": "China",
      "phone": "+86 755 3285 7500",
      "fax": "+86 755 3285 7501",
      "currencyCode": "CNY",
      "isActive": true,
      "isComingSoon": false,
      "latitude": 22.535877,
      "longitude": 114.058118
   },
   {
      "code": "TFT",
      "name": "Taiping Finance Tower",
      "address": "Level 14, Taiping Finance Tower, 6001 Yitian Road, Futian District, Shenzhen 518000",
      "city": "Shenzhen",
      "region": "China",
      "phone": "+86 755 3290 0900",
      "fax": null,
      "currencyCode": "CNY",
      "isActive": true,
      "isComingSoon": false,
      "latitude": 22.542053,
      "longitude": 114.055557
   },
   {
      "code": "UBC",
      "name": "UB City",
      "address": "Level 11, Canberra, UB City, 24 Vittal Mallya Road, Bangalore",
      "city": "Bangalore",
      "region": "India",
      "phone": "+91 80 6720 5555",
      "fax": null,
      "currencyCode": "INR",
      "isActive": true,
      "isComingSoon": false,
      "latitude": 12.972944,
      "longitude": 77.595803
   },
   {
      "code": "NA2",
      "name": "Taipei Nanshan Plaza L37",
      "address": "Level 37, Taipei Nanshan Plaza, No 100, Songren Road, Xinyi District, Taipei 110, Taiwan",
      "city": "Taipei",
      "region": "Taiwan",
      "phone": "+886 2 8729 5888",
      "fax": "+886 2 8729 5889",
      "currencyCode": "TWD",
      "isActive": true,
      "isComingSoon": false,
      "latitude": 25.035463,
      "longitude": 121.568582
   },
   {
      "code": "WFC",
      "name": "World Financial Centre",
      "address": "Level 41, Tianjin World Financial Centre, 2 Dagubei Road, Heping District, Tianjin",
      "city": "Tianjin",
      "region": "China",
      "phone": "+86 22 5830 7888",
      "fax": null,
      "currencyCode": "CNY",
      "isActive": true,
      "isComingSoon": false,
      "latitude": 39.129703,
      "longitude": 117.202805
   },
   {
      "code": "MSD",
      "name": "TEDA MSD C1 Tower",
      "address": "Level 17, TEDA MSD C1 Tower, No. 79 First Avenue, TEDA, Tianjian, China 300457",
      "city": "Tianjin",
      "region": "China",
      "phone": "+86 22 5985 9888",
      "fax": null,
      "currencyCode": "CNY",
      "isActive": true,
      "isComingSoon": false,
      "latitude": 39.022072,
      "longitude": 117.707659
   },
   {
      "code": "EXT",
      "name": "The Exchange Tower 2",
      "address": "Level 29, The Exchange Tower 2, 189 Nanjing Road, Heping District, Tianjin",
      "city": "Tianjin",
      "region": "China",
      "phone": "+86 22 2318 5000",
      "fax": null,
      "currencyCode": "CNY",
      "isActive": true,
      "isComingSoon": false,
      "latitude": 39.117227,
      "longitude": 117.196767
   },
   {
      "code": "YJP",
      "name": "Innovative Financial Building",
      "address": "Level 18, Innovative Financial Building, No. 3678 Xin Hua Road, Yu Jia Pu Financial District, Binhai New District, Tianjin 300450, China",
      "city": "Tianjin",
      "region": "China",
      "phone": "+86 22 2318 5000",
      "fax": null,
      "currencyCode": "CNY",
      "isActive": true,
      "isComingSoon": false,
      "latitude": 38.996065,
      "longitude": 117.679605
   },
   {
      "code": "J12",
      "name": "Jingumae Tower Building L12",
      "address": "Level 12, Jingumae Tower Building,1-5-8 Jingumae Shibuya-ku,Tokyo 150-0001",
      "city": "Tokyo",
      "region": "Japan",
      "phone": "+81 3 6741 7000",
      "fax": "+81 3 6741 7001",
      "currencyCode": "JPY",
      "isActive": true,
      "isComingSoon": false,
      "latitude": 35.667204,
      "longitude": 139.70798
   },
   {
      "code": "J13",
      "name": "Jingumae Tower Building L13",
      "address": "Level 13, Jingumae Tower Building,1-5-8 Jingumae Shibuya-ku,Tokyo 150-0001",
      "city": "Tokyo",
      "region": "Japan",
      "phone": "+81 3 6741 7000",
      "fax": "+81 3 6741 7001",
      "currencyCode": "JPY",
      "isActive": true,
      "isComingSoon": false,
      "latitude": 35.670725,
      "longitude": 139.70798
   },
   {
      "code": "AIA",
      "name": "AIA Tower",
      "address": "Level 20, AIA Tower, 251A-301 Avenida Commercial De Macau, Macau",
      "city": "Macau",
      "region": "Macau",
      "phone": "+853 8294 2333",
      "fax": null,
      "currencyCode": "MOP",
      "isActive": true,
      "isComingSoon": false,
      "latitude": 22.189964,
      "longitude": 113.540183
   },
   {
      "code": "J14",
      "name": "Jingumae Tower Building L14",
      "address": "Level 14, Jingumae Tower Building,1-5-8 Jingumae Shibuya-ku,Tokyo 150-0001",
      "city": "Tokyo",
      "region": "Japan",
      "phone": "+81 3 6741 7000",
      "fax": "+81 3 6741 7001",
      "currencyCode": "JPY",
      "isActive": true,
      "isComingSoon": false,
      "latitude": 35.667204,
      "longitude": 139.70798
   },
   {
      "code": "RNT",
      "name": "Roppongi Hills North Tower",
      "address": "Level 17, Roppongi Hills North Tower, 6-2-31 Roppongi, Minato-ku, Tokyo, Japan 106-0032",
      "city": "Tokyo",
      "region": "Japan",
      "phone": "+81 3 5786 2333",
      "fax": "+81 3 5786 2330",
      "currencyCode": "JPY",
      "isActive": true,
      "isComingSoon": false,
      "latitude": 35.661863,
      "longitude": 139.730237
   },
   {
      "code": "HR1",
      "name": "HKRI Taikoo Hui Center I",
      "address": "Level 20, HKRI Taikoo Hui Center I, 288 Shimen Yi Road, Jing'an District, Shanghai, China 200041",
      "city": "Shanghai",
      "region": "China",
      "phone": "+86 21 8033 7388",
      "fax": null,
      "currencyCode": "CNY",
      "isActive": true,
      "isComingSoon": false,
      "latitude": 31.228879,
      "longitude": 121.462304
   },
   {
      "code": "SPT",
      "name": "Sanno Park Tower",
      "address": "Level 3, Sanno Park Tower, 2-11-1 Nagata-cho, Chiyoda-ku, Tokyo, Japan",
      "city": "Tokyo",
      "region": "Japan",
      "phone": "+81 3 6205 3000",
      "fax": "+81 3 6205 3100",
      "currencyCode": "JPY",
      "isActive": true,
      "isComingSoon": false,
      "latitude": 35.673428,
      "longitude": 139.740361
   },
   {
      "code": "SMC",
      "name": "Shin Marunouchi Centre",
      "address": "Level 21, Shin-Marunouchi Center Building, 1-6-2 Marunouchi, Chiyoda-ku, Tokyo, Japan 100-0005",
      "city": "Tokyo",
      "region": "Japan",
      "phone": "+81 03 3216 7200",
      "fax": "+81 03 3216 7210",
      "currencyCode": "JPY",
      "isActive": true,
      "isComingSoon": false,
      "latitude": 35.684179,
      "longitude": 139.766425
   },
   {
      "code": "MMC",
      "name": "Minato Mirai Center Building",
      "address": "Level 19, Minato Mirai Center Building, 3-6-1 Minatomirai, Nishi-ku, Yokohama-shi, Kanagawa 220-0012, Japan",
      "city": "Yokohama",
      "region": "Japan",
      "phone": "+81 045 345 5800",
      "fax": "+81 045 345 5801",
      "currencyCode": "JPY",
      "isActive": true,
      "isComingSoon": false,
      "latitude": 35.457805,
      "longitude": 139.633881
   },
   {
      "code": "HR2",
      "name": "HKRI Taikoo Hui Center 2",
      "address": "Level 20, HKRI Taikoo Hui Center II, 288 Shimen Yi Road, Jing'an District, Shanghai, China 200041",
      "city": "Shanghai",
      "region": "China",
      "phone": "+86 21 8028 7333",
      "fax": null,
      "currencyCode": "CNY",
      "isActive": true,
      "isComingSoon": false,
      "latitude": 31.231017,
      "longitude": 121.462734
   },
   {
      "code": "FEP",
      "name": "Far Eastern Plaza",
      "address": "Level 16, Far Eastern Plaza, No. 207, Section 2, Dun Hua South Road, Taipei 106, Taiwan",
      "city": "Taipei",
      "region": "Taiwan",
      "phone": "+886 2 8722 0088",
      "fax": null,
      "currencyCode": "TWD",
      "isActive": true,
      "isComingSoon": false,
      "latitude": 25.025783,
      "longitude": 121.549339
   },
   {
      "code": "DCP",
      "name": "DLF Cyber Park",
      "address": "Level 9, DLF Cyber Park, Tower C, Sector 20, Gurgaon - 122001, India",
      "city": "Gurgaon",
      "region": "India",
      "phone": "+91 124 663 7777",
      "fax": "+91 124 663 7778",
      "currencyCode": "INR",
      "isActive": true,
      "isComingSoon": true,
      "latitude": 28.503126,
      "longitude": 77.090531
   },
   {
      "code": "MIR",
      "name": "Mirae Asset Shanghai Centre",
      "address": "Level 20, Mirae Asset Tower, 166 Lujiazui Ring Road, Pudong Xinqu, Shanghai, China 200120",
      "city": "Shanghai",
      "region": "China",
      "phone": "+86 21 6179 9888",
      "fax": null,
      "currencyCode": "CNY",
      "isActive": true,
      "isComingSoon": false,
      "latitude": 31.234986,
      "longitude": 121.500437
   },
   {
      "code": "BE8",
      "name": "BEA Finance Tower L8",
      "address": "Level 8, BEA Finance Tower, 66 Huayuan Shiqiao Road, Pudong District, Shanghai 200120, Peopleâs Republic of China",
      "city": "Shanghai",
      "region": "China",
      "phone": "+86 21 6179 9888",
      "fax": null,
      "currencyCode": "CNY",
      "isActive": true,
      "isComingSoon": false,
      "latitude": 31.23379,
      "longitude": 121.502379
   },
   {
      "code": "IFS",
      "name": "Two International Finance Centre",
      "address": "Level 22, Two International Finance Centre, 10 Gukjegeumyung-ro, Yeoungdeungpo-gu, Seoul 07326, South Korea",
      "city": "Seoul",
      "region": "Korea",
      "phone": "+82 2 6138 3500",
      "fax": "+82 2 6138 3555",
      "currencyCode": "KRW",
      "isActive": true,
      "isComingSoon": false,
      "latitude": 37.52526,
      "longitude": 126.924731
   },
   {
      "code": "SA2",
      "name": "Safina Towers L2",
      "address": "Level 2, Safina Towers Pvt. Ltd., 3, Ali Asker Road, Banaglore 560052, India",
      "city": "Bangalore",
      "region": "India",
      "phone": "+91 80 6120 7100",
      "fax": null,
      "currencyCode": "INR",
      "isActive": true,
      "isComingSoon": false,
      "latitude": 12.987153,
      "longitude": 77.591098
   },
   {
      "code": "SGT",
      "name": "Seoul Glass Tower",
      "address": "Level 20, Glass Tower, 534 Teheran-ro, Gangnam-gu, Seoul Korea 06181",
      "city": "Seoul",
      "region": "Korea",
      "phone": "+82 2 2092 6500",
      "fax": "+82 2 2092 6555",
      "currencyCode": "KRW",
      "isActive": true,
      "isComingSoon": false,
      "latitude": 37.508007,
      "longitude": 127.062816
   },
   {
      "code": "KAM",
      "name": "Kaman Amaryllis",
      "address": "Level 1, 2 & 3 139/26-1 Internal Ring Road, Outside Embassy Golf Link, Amarjyoti Layout, Domlur, Bangalore 560071",
      "city": "Bangalore",
      "region": "India",
      "phone": "+91  80 6720 5555",
      "fax": null,
      "currencyCode": "INR",
      "isActive": true,
      "isComingSoon": true,
      "latitude": 12.954424,
      "longitude": 77.643143
   },
   {
      "code": "DLF",
      "name": "DLF Centre",
      "address": "Level 3B, DLF Centre, Sansad Marg, Connaught Place, New Delhi - 110001, India",
      "city": "New Delhi",
      "region": "India",
      "phone": "+91 11 61289000",
      "fax": "+91 11 61289001",
      "currencyCode": "INR",
      "isActive": true,
      "isComingSoon": false,
      "latitude": 28.628577,
      "longitude": 77.21726
   },
   {
      "code": "DL2",
      "name": "DLF Centre L8",
      "address": "Level 8, DLF Centre, Sansad Marg, Connaught Place, New Delhi - 110001, India",
      "city": "New Delhi",
      "region": "India",
      "phone": "+91 11 61289000",
      "fax": "+91 11 61289001",
      "currencyCode": "INR",
      "isActive": true,
      "isComingSoon": false,
      "latitude": 28.628577,
      "longitude": 77.21726
   },
   {
      "code": "1C3",
      "name": "One Central Building 3",
      "address": "Level 3, Building C3, One Central, DWTC, Sheikh Zayed Road, PO Box 9573, Dubai, UAE",
      "city": "Dubai",
      "region": "United Arab Emirates",
      "phone": "+971 4526 4777",
      "fax": "+971 4526 4778",
      "currencyCode": "AED",
      "isActive": true,
      "isComingSoon": false,
      "latitude": 25.227627,
      "longitude": 55.288925
   },
   {
      "code": "CAC",
      "name": "corporate Avenue Centre",
      "address": "Level 25, No. 8 Building Corporate Avenue, No. 01 Hua Sheng Road, Yuzhong District, 400001 Chongqing, China",
      "city": "Chongqing",
      "region": "China",
      "phone": "+86 23 8969 8188",
      "fax": "+86 23 8969 8189",
      "currencyCode": "CNY",
      "isActive": true,
      "isComingSoon": false,
      "latitude": 29.549191,
      "longitude": 106.51761
   },
   {
      "code": "MOP",
      "name": "Metropolitan Oriental Plaza",
      "address": "37th Floor,Metropolitan Oriental Plaza,No. 68, Zourong Rd, Yuzhong District, Chongqing, China, 400010",
      "city": "Chongqing",
      "region": "China",
      "phone": "+86 23 8969 8999",
      "fax": "+86 23 8969 8449",
      "currencyCode": "CNY",
      "isActive": true,
      "isComingSoon": false,
      "latitude": 29.557539,
      "longitude": 106.579004
   },
   {
      "code": "SKC",
      "name": "Salarpuria Sattva Knowledge City",
      "address": "Level 1, Unit 2, Sy. No. 83/1, Plot no 2, Inorbit Mall Road, Raidurg Village, HiTech City, Hyderabad â 500081, India",
      "city": "Hyderabad",
      "region": "India",
      "phone": "+91 80 6720 5555",
      "fax": null,
      "currencyCode": "INR",
      "isActive": true,
      "isComingSoon": false,
      "latitude": 17.435087,
      "longitude": 78.381413
   },
   {
      "code": "SK2",
      "name": "Salarpuria Sattva Knowledge City L7",
      "address": "Level 7, Octave 3, Salarpuria Sattva Knowledge City, Sy. No. 83/1, Plot No. 2, Inorbit Mall Road, Raidurg Village, Hitech City,  Hyderabad",
      "city": "Hyderabad",
      "region": "India",
      "phone": "+91 40 4000 8000",
      "fax": "+91 40 4000 8001",
      "currencyCode": "INR",
      "isActive": true,
      "isComingSoon": false,
      "latitude": 17.435087,
      "longitude": 78.381413
   }
]
